City,Temperature,Latitude,Longitude,Humidity,Cloudiness,Wind Speed,Country,Date
Albany,75.29,42.6,-73.97,92,97,4.0,US,1595219325
Bara,72.57,10.37,10.73,93,92,10.96,NG,1595219326
Arraial do Cabo,70.41,-22.97,-42.03,85,0,22.44,BR,1595219326
Nouakchott,78.8,18.09,-15.98,83,40,14.99,MR,1595219326
Scarborough,47.43,54.28,-0.4,82,0,1.99,GB,1595219326
Inta,63.5,66.03,60.17,56,2,6.69,RU,1595219326
Coruripe,74.48,-10.13,-36.18,84,51,15.39,BR,1595219326
São João da Barra,70.72,-21.64,-41.05,87,49,10.6,BR,1595219327
Cape Town,52.66,-33.93,18.42,100,0,1.12,ZA,1595219327
Vaini,69.8,-21.2,-175.2,100,90,9.17,TO,1595219040
George Town,87.13,5.41,100.34,70,20,3.36,MY,1595219327
Puerto Ayora,69.01,-0.74,-90.35,92,77,5.01,EC,1595219038
Fohnsdorf,55.4,47.22,14.68,100,47,2.24,AT,1595219327
Lukovetskiy,68.0,64.3,41.92,68,0,2.24,RU,1595219328
Lompoc,58.33,34.64,-120.46,87,0,5.82,US,1595219328
Rikitea,68.88,-23.12,-134.97,58,1,11.81,PF,1595219328
Bredasdorp,53.6,-34.53,20.04,93,24,1.12,ZA,1595219328
Dikson,41.02,73.51,80.55,98,80,9.86,RU,1595219328
Busselton,57.27,-33.65,115.33,73,0,1.99,AU,1595219329
Upernavik,48.69,72.79,-56.15,56,17,6.49,GL,1595219329
Melito di Porto Salvo,70.66,37.92,15.77,88,40,1.12,IT,1595219329
Hamilton,73.36,39.18,-84.53,88,1,9.17,US,1595219329
Rexburg,73.4,43.83,-111.79,35,1,3.36,US,1595219329
Guisa,77.0,20.25,-76.54,94,75,5.82,CU,1595219330
Khatanga,51.98,71.97,102.5,74,100,5.59,RU,1595219330
Ushuaia,24.8,-54.8,-68.3,100,0,2.24,AR,1595219313
Hermanus,53.01,-34.42,19.23,79,16,1.01,ZA,1595219330
Lincoln,78.8,40.8,-96.67,57,90,6.93,US,1595219330
Bambous Virieux,70.36,-20.34,57.76,60,75,18.34,MU,1595219330
Takaka,53.01,-40.85,172.8,83,100,5.99,NZ,1595219331
Urgut,91.4,39.4,67.24,18,0,4.7,UZ,1595219331
Punta Arenas,32.0,-53.15,-70.92,94,97,6.93,CL,1595219058
Portree,48.0,57.41,-6.19,92,98,1.99,GB,1595219331
Port Alfred,62.98,-33.59,26.89,29,0,8.08,ZA,1595219331
Nioro,76.98,13.35,-15.75,88,89,5.66,GM,1595219332
Mehamn,51.13,71.04,27.85,87,100,5.37,NO,1595219332
‘Ewa Beach,81.57,21.32,-158.01,61,1,11.41,US,1595219332
Pevek,49.87,69.7,170.31,54,0,6.53,RU,1595219332
Hithadhoo,82.87,-0.6,73.08,78,100,14.07,MV,1595219208
Hambantota,85.21,6.12,81.12,64,98,2.42,LK,1595219333
Atuona,79.65,-9.8,-139.03,77,45,16.22,PF,1595219333
Mount Isa,78.8,-20.73,139.5,13,81,13.87,AU,1595219333
Port Hedland,78.8,-20.32,118.57,31,43,12.75,AU,1595219333
Butaritari,82.92,3.07,172.79,79,0,15.82,KI,1595219333
Bluff,45.79,-46.6,168.33,83,99,5.77,NZ,1595219333
Ponta do Sol,66.42,32.67,-17.1,73,75,9.17,PT,1595219334
Katherine,86.0,-14.47,132.27,16,0,12.75,AU,1595219334
Saint Anthony,70.32,45.02,-93.22,60,1,4.7,US,1595219334
Abu Samrah,79.56,35.3,37.18,32,0,4.99,SY,1595219334
Kalmunai,86.85,7.42,81.82,61,99,4.63,LK,1595219334
Marsá Maţrūḩ,69.8,31.35,27.25,88,0,7.9,EG,1595219335
Umluj,86.59,25.02,37.27,46,0,10.51,SA,1595219335
Longyearbyen,44.6,78.22,15.64,87,75,9.17,SJ,1595219335
Emba,81.18,48.83,58.14,34,0,14.76,KZ,1595219335
Itarema,74.44,-2.92,-39.92,88,25,8.75,BR,1595219335
Nha Trang,91.4,12.25,109.18,70,20,10.29,VN,1595219335
Kapaa,78.37,22.08,-159.32,78,90,18.34,US,1595219336
Nantucket,69.44,41.28,-70.1,100,75,12.75,US,1595219336
Port Elizabeth,42.8,-33.92,25.57,87,0,3.36,ZA,1595219040
Prokhorovka,66.2,51.04,36.73,68,18,1.88,RU,1595219336
New Norfolk,46.54,-42.78,147.06,76,59,4.0,AU,1595219336
Lagoa,68.23,39.05,-27.98,79,46,7.45,PT,1595219336
Comodoro Rivadavia,42.8,-45.87,-67.5,87,90,10.29,AR,1595219337
Onokhoy,68.0,51.93,108.07,32,40,8.95,RU,1595219337
Methóni,72.5,36.82,21.7,60,0,8.05,GR,1595219337
Benidorm,73.85,38.54,-0.13,64,32,1.57,ES,1595219337
Fatezh,60.8,52.09,35.86,82,88,4.47,RU,1595219337
Hobart,49.5,-42.88,147.33,59,75,16.11,AU,1595219331
Oktyabr'skiy,65.44,54.48,53.47,87,2,7.61,RU,1595219338
Severo-Kuril'sk,53.26,50.68,156.12,80,64,14.14,RU,1595219338
Beringovskiy,45.3,63.05,179.32,74,80,11.39,RU,1595219338
Jennings,72.3,38.72,-90.26,88,90,11.41,US,1595219338
Mataura,48.18,-46.19,168.86,82,100,2.75,NZ,1595219338
Codrington,52.79,-38.27,141.97,72,75,13.89,AU,1595219338
Jawor,59.02,51.05,16.19,10,73,3.38,PL,1595219339
Bjerkvik,51.87,68.56,17.52,93,100,2.24,NO,1595219339
Hammerfest,50.0,70.66,23.68,100,75,13.87,NO,1595219339
Flin Flon,60.91,54.77,-101.86,59,90,2.55,CA,1595219339
Haines Junction,55.11,60.75,-137.51,67,100,6.64,CA,1595219339
Yellowknife,63.01,62.46,-114.35,82,75,2.24,CA,1595219340
Jacareacanga,74.37,-6.22,-57.75,64,43,1.01,BR,1595219340
Pringsewu,87.53,-5.36,104.97,59,7,3.47,ID,1595219340
Shimoda,82.71,34.67,138.95,78,75,9.17,JP,1595219340
Sørland,55.4,67.67,12.69,82,75,3.36,NO,1595219341
Cheyenne,69.49,41.14,-104.82,32,1,6.93,US,1595219065
Norman Wells,59.0,65.28,-126.83,87,40,6.93,CA,1595219341
Suzaka,86.0,36.65,138.32,58,100,1.01,JP,1595219341
Esim,74.37,4.87,-2.24,93,91,5.41,GH,1595219341
Qaanaaq,44.64,77.48,-69.36,76,99,1.79,GL,1595219342
Tuatapere,48.22,-46.13,167.68,92,100,5.06,NZ,1595219342
Ribeira Grande,68.81,38.52,-28.7,76,46,1.86,PT,1595219342
Kaniama,53.89,-7.57,24.18,49,0,4.7,CD,1595219343
Zunyi,73.09,27.69,106.91,84,97,7.34,CN,1595219343
Villa Bruzual,73.18,9.33,-69.12,95,100,0.89,VE,1595219343
Mahibadhoo,83.44,3.78,72.97,76,99,24.83,MV,1595219343
Gīdolē,54.52,5.65,37.37,91,56,2.08,ET,1595219344
Chokurdakh,77.95,70.63,147.92,37,100,15.82,RU,1595219344
Lexington,79.21,37.99,-84.48,78,1,6.93,US,1595219326
Great Yarmouth,48.96,52.61,1.73,99,0,9.44,GB,1595219344
Jamestown,69.53,42.1,-79.24,94,90,3.36,US,1595219232
Saint George,96.19,37.1,-113.58,11,1,4.7,US,1595219345
Orlik,67.48,52.52,99.83,35,13,1.3,RU,1595219345
West Point,81.18,33.61,-88.65,94,1,4.7,US,1595219064
Aasiaat,45.63,68.71,-52.87,69,86,9.24,GL,1595219346
Tangwani,93.2,28.28,69.0,59,40,11.41,PK,1595219346
Tottori-shi,86.0,35.5,134.23,74,75,8.05,JP,1595219346
Yar-Sale,63.14,66.83,70.83,51,0,9.91,RU,1595219347
Rudnogorsk,59.77,57.26,103.75,56,63,3.6,RU,1595219347
Saint-Pierre,59.79,-21.34,55.48,88,75,13.87,RE,1595219347
Padang,86.0,-0.95,100.35,70,20,4.7,ID,1595219347
Sitka,57.2,57.05,-135.33,93,90,4.7,US,1595219348
Klaksvík,50.0,62.23,-6.59,87,70,17.22,FO,1595219348
Hilo,73.6,19.73,-155.09,74,90,9.17,US,1595219348
Riyadh,93.2,24.69,46.72,21,22,6.93,SA,1595219348
Sirte,75.0,31.21,16.59,80,0,7.67,LY,1595219349
Torbay,59.04,47.67,-52.73,93,20,13.87,CA,1595219349
Bethel,75.42,41.37,-73.41,83,75,5.28,US,1595219349
Muisne,73.71,0.6,-80.03,87,96,10.18,EC,1595219350
Coyhaique,35.6,-45.58,-72.07,93,90,3.36,CL,1595219350
Tuktoyaktuk,48.2,69.45,-133.04,70,75,2.24,CA,1595219350
Marsh Harbour,82.92,26.54,-77.06,79,12,15.21,BS,1595219350
Solnechnyy,82.45,50.72,136.63,54,98,6.24,RU,1595219350
Alofi,78.8,-19.06,-169.92,83,63,6.93,NU,1595219271
Cidreira,65.95,-30.18,-50.21,79,76,5.39,BR,1595219351
Paphos,75.2,34.77,32.42,60,0,6.93,CY,1595219351
São Filipe,76.24,14.9,-24.5,86,88,8.95,CV,1595219348
Nikolskoye,65.59,59.7,30.79,82,81,2.24,RU,1595219352
Sola,80.6,-13.88,167.55,65,90,6.93,VU,1595219352
Boca do Acre,75.7,-8.75,-67.4,75,79,0.83,BR,1595219352
Cabo San Lucas,88.77,22.89,-109.91,35,20,4.7,MX,1595219107
Tiksi,61.65,71.69,128.87,57,56,6.35,RU,1595219352
Iqaluit,41.0,63.75,-68.51,100,90,5.82,CA,1595219131
San Quintín,71.19,30.48,-115.95,67,0,17.76,MX,1595219353
Avarua,73.4,-21.21,-159.78,83,67,17.22,CK,1595219353
Esperance,57.2,-33.87,121.9,62,40,8.05,AU,1595219353
Alibag,86.0,18.64,72.88,79,40,9.17,IN,1595219353
Elati,62.6,39.98,21.82,55,0,9.17,GR,1595219353
Cherskiy,74.95,68.75,161.3,35,0,2.26,RU,1595219354
Aksarka,60.19,66.56,67.8,55,23,6.53,RU,1595219354
Puerto Baquerizo Moreno,69.06,-0.9,-89.6,87,20,13.94,EC,1595219116
Bryan,80.38,30.67,-96.37,70,1,8.05,US,1595219354
Hohhot,82.4,40.81,111.65,39,4,8.95,CN,1595219060
Jieshi,86.45,22.81,115.83,70,100,10.04,CN,1595219354
Mulegé,89.04,26.88,-111.98,46,76,4.74,MX,1595219355
Lacombe,58.51,52.47,-113.74,82,75,8.05,CA,1595219355
Hofn,51.91,64.25,-15.21,72,98,1.99,IS,1595219355
Shingū,80.6,33.73,135.98,88,75,6.93,JP,1595219356
Mareeba,75.16,-17.0,145.43,62,39,5.01,AU,1595219160
Yangi Marg`ilon,86.0,40.43,71.72,25,0,2.24,UZ,1595219356
Lorengau,85.6,-2.02,147.27,69,78,11.43,PG,1595219356
Geraldton,64.4,-28.77,114.6,52,0,17.22,AU,1595219350
Batagay,69.87,67.63,134.63,67,85,3.31,RU,1595219357
Lüderitz,60.8,-26.65,15.16,27,0,2.24,NA,1595219357
Provideniya,50.0,64.38,-173.3,81,90,13.42,RU,1595219357
Cayhagan,85.98,9.67,122.43,66,45,1.68,PH,1595219358
Dafeng,90.27,23.45,108.59,59,99,9.78,CN,1595219358
Jackson,81.68,42.42,-122.83,28,1,3.36,US,1595219358
Mar del Plata,51.58,-38.0,-57.56,100,90,12.75,AR,1595219279
Nanning,89.6,22.82,108.32,66,40,4.47,CN,1595219358
Ulladulla,58.01,-35.35,150.47,33,0,13.87,AU,1595219359
Alta Floresta,70.38,-9.88,-56.09,59,4,3.89,BR,1595219359
Narsaq,50.0,60.92,-46.05,61,58,4.7,GL,1595219359
Lovozero,68.36,68.0,35.01,63,32,1.16,RU,1595219359
Castro,54.12,-24.79,-50.01,91,0,3.6,BR,1595219360
Belaya Gora,80.58,68.53,146.42,31,99,12.17,RU,1595219360
Sept-Îles,64.72,50.2,-66.38,100,90,9.17,CA,1595219360
Najrān,73.4,17.49,44.13,73,75,8.05,SA,1595219361
Guerrero Negro,68.9,27.98,-114.06,82,25,10.25,MX,1595219361
Tafresh,80.6,34.69,50.01,24,75,18.34,IR,1595219361
Mahébourg,69.8,-20.41,57.7,60,75,18.34,MU,1595219361
Stykkisholmur,44.92,65.08,-22.73,82,6,4.79,IS,1595219361
Yeppoon,78.8,-23.13,150.73,29,23,5.82,AU,1595219362
Griffith,69.22,41.53,-87.42,83,1,5.82,US,1595219149
Biloela,73.92,-24.42,150.5,28,29,8.93,AU,1595219362
Aklavik,51.8,68.22,-135.01,62,75,5.57,CA,1595219321
Doha,97.77,25.29,51.53,45,78,8.05,QA,1595219362
Nabire,85.1,-3.37,135.48,67,13,4.61,ID,1595219363
Nanortalik,45.39,60.14,-45.24,76,19,3.49,GL,1595219363
Mount Gambier,53.6,-37.83,140.77,81,75,9.17,AU,1595219363
Hong Kong,89.2,22.29,114.16,63,20,11.41,HK,1595219160
San Jerónimo,46.26,-11.95,-75.28,62,87,0.07,PE,1595219364
Atar,83.62,20.52,-13.05,46,1,7.92,MR,1595219364
Tigil',64.63,57.8,158.67,59,30,12.26,RU,1595219364
Naze,87.8,28.37,129.48,74,75,12.75,JP,1595219364
Donskoye,76.91,45.46,41.97,44,0,6.71,RU,1595219365
Lebu,51.04,-37.62,-73.65,87,0,12.33,CL,1595219349
Vila Velha,67.48,-20.33,-40.29,94,75,3.36,BR,1595219349
Faya,59.9,18.39,42.45,82,75,8.05,SA,1595219365
Dongsheng,82.29,39.82,109.98,21,50,12.48,CN,1595219365
Touros,73.4,-5.2,-35.46,100,75,4.7,BR,1595219366
Tilichiki,54.9,60.47,166.1,80,100,4.16,RU,1595219366
East London,48.2,-33.02,27.91,70,0,5.82,ZA,1595219306
Gemeente Wageningen,57.43,51.97,5.67,93,90,3.36,NL,1595219366
Al Bardīyah,72.18,31.76,25.09,87,0,9.73,LY,1595219366
Ust-Tsilma,63.57,65.44,52.15,57,0,3.67,RU,1595219321
Makakilo City,81.48,21.35,-158.09,61,1,11.41,US,1595219367
Acapulco de Juárez,81.07,16.86,-99.89,81,7,3.31,MX,1595219309
Altoona,73.62,40.52,-78.39,69,1,6.93,US,1595219367
Yumen,88.57,40.28,97.2,12,38,10.04,CN,1595219367
Havre-St-Pierre,68.0,50.23,-63.6,77,90,6.93,CA,1595219367
Yulara,55.4,-25.24,130.99,71,75,14.99,AU,1595219368
Mabaruma,73.85,8.2,-59.78,97,1,2.06,GY,1595219368
Bengkulu,85.98,-3.8,102.27,64,0,6.78,ID,1595219360
Mayo,82.09,38.89,-76.51,74,1,4.7,US,1595219368
Chililabombwe,47.57,-12.36,27.82,93,0,7.99,ZM,1595219369
Necochea,52.0,-38.55,-58.74,97,94,5.01,AR,1595219369
Vardø,59.0,70.37,31.11,100,40,9.17,NO,1595219369
Khovd,75.61,48.01,91.64,37,0,4.23,MN,1595219369
Peleduy,57.4,59.63,112.74,79,100,3.98,RU,1595219369
Kenora,59.0,49.82,-94.43,72,75,3.36,CA,1595219369
Kizilskoye,72.28,52.73,58.89,69,0,10.87,RU,1595219370
Gaoual,73.58,11.75,-13.2,93,100,3.33,GN,1595219370
Barrow,37.4,71.29,-156.79,86,90,13.87,US,1595219371
Mpulungu,64.67,-8.76,31.11,60,0,9.28,ZM,1595219371
Pouembout,73.44,-21.13,164.9,53,35,9.91,NC,1595219371
Omsukchan,65.91,62.53,155.8,43,86,5.21,RU,1595219371
Fortuna,54.77,40.6,-124.16,100,90,4.7,US,1595219371
Rome,72.32,43.21,-75.46,83,90,6.93,US,1595219372
Sungai Penuh,81.7,-2.08,101.38,57,31,1.74,ID,1595219260
Yārāda,86.0,17.65,83.27,79,75,9.17,IN,1595219372
Washington,82.53,47.5,-120.5,25,1,11.41,US,1595219372
San Cristobal,65.48,7.77,-72.22,89,71,3.6,VE,1595219372
Tazovsky,55.89,67.47,78.7,62,35,11.97,RU,1595219373
Leningradskiy,43.9,69.38,178.42,69,1,9.71,RU,1595219373
Lundazi,53.82,-12.29,33.18,85,0,9.98,ZM,1595219373
Isangel,78.8,-19.55,169.27,61,40,9.17,VU,1595219373
Mossamedes,67.68,-15.2,12.15,57,32,6.29,AO,1595219373
Lebrija,72.36,36.92,-6.08,83,0,1.99,ES,1595219374
Nuuk,53.29,64.18,-51.72,62,100,13.87,GL,1595219374
Tual,78.73,-5.67,132.75,84,83,19.33,ID,1595219374
Mahajanga,69.8,-15.72,46.32,52,1,9.17,MG,1595219374
Deputatsky,67.28,69.3,139.9,53,96,4.38,RU,1595219318
Kahului,77.18,20.89,-156.47,58,40,20.8,US,1595219121
Goderich,73.02,43.75,-81.72,71,7,1.01,CA,1595219354
Thompson,60.8,55.74,-97.86,77,75,3.36,CA,1595219375
Paamiut,46.81,61.99,-49.67,76,81,3.42,GL,1595219375
Pangnirtung,54.82,66.15,-65.71,69,100,1.57,CA,1595219375
San Patricio,80.04,19.22,-104.7,86,90,6.91,MX,1595219375
Pirovskoye,61.59,57.63,92.27,76,100,8.23,RU,1595219376
Jacksonville,80.85,30.33,-81.66,78,20,8.05,US,1595219284
Katsuura,83.3,35.13,140.3,78,75,5.82,JP,1595219376
Carnarvon,73.4,-24.87,113.63,33,0,11.41,AU,1595219376
Kambove,45.9,-10.88,26.6,81,0,6.64,CD,1595219376
Ishigaki,91.4,24.34,124.16,75,40,10.29,JP,1595219377
Barcelos,62.4,41.54,-8.62,100,75,2.24,PT,1595219377
Ancud,44.65,-41.87,-73.82,100,90,3.36,CL,1595219377
Saint-Augustin,63.93,51.23,-58.65,70,42,7.36,CA,1595219377
Venezuela,78.35,8.0,-66.0,86,98,3.24,VE,1595219377
Fort Nelson,68.0,58.81,-122.7,72,20,2.24,CA,1595219377
Bull Savanna,77.23,17.89,-77.59,81,100,3.38,JM,1595219378
Acarí,61.23,-15.43,-74.62,64,93,3.36,PE,1595219378
Bahía Honda,78.98,22.9,-83.16,86,52,8.61,CU,1595219378
Bukachacha,62.62,52.98,116.92,58,78,5.46,RU,1595219378
Bubaque,79.32,11.28,-15.83,84,100,15.88,GW,1595219379
Chui,66.34,-33.7,-53.46,86,95,7.2,UY,1595219379
Moranbah,74.01,-22.0,148.05,36,20,9.57,AU,1595219379
Fomboni,76.48,-12.28,43.74,71,6,22.46,KM,1595219379
Grindavik,44.6,63.84,-22.43,93,75,3.36,IS,1595219379
Bonthe,75.16,7.53,-12.51,91,33,6.15,SL,1595219379
Hīt,93.67,33.64,42.83,12,0,7.54,IQ,1595219380
Podeni,53.28,44.88,22.54,91,0,5.03,RO,1595219380
Kirkwall,48.54,58.98,-2.96,93,86,3.36,GB,1595219380
Petrovskoye,58.46,57.01,39.27,94,99,4.61,RU,1595219380
Takoradze,74.14,4.88,-1.76,94,100,5.53,GH,1595219381
Namatanai,85.62,-3.67,152.43,64,4,9.08,PG,1595219381
Zabaykal'sk,63.16,49.63,117.32,50,0,18.28,RU,1595219381
Raudeberg,50.59,61.99,5.14,87,75,8.05,NO,1595219381
Kavieng,85.69,-2.57,150.8,67,1,9.01,PG,1595219381
Zorgo,76.82,12.25,-0.62,80,95,7.61,BF,1595219382
Bulgan,64.22,48.81,103.53,66,1,5.06,MN,1595219382
Yushu,73.24,44.8,126.53,71,94,6.64,CN,1595219382
La Libertad,69.8,-2.23,-80.9,94,90,11.41,EC,1595219382
Phan Thiet,87.57,10.93,108.1,65,88,4.16,VN,1595219383
Kaitangata,46.99,-46.28,169.85,70,98,1.99,NZ,1595219291
Khāsh,87.3,28.22,61.22,12,0,16.58,IR,1595219383
Léo,72.9,11.1,-2.1,92,83,4.88,BF,1595219383
Oussouye,77.0,12.48,-16.55,100,20,4.7,SN,1595219384
Ahipara,61.79,-35.17,173.17,84,93,2.84,NZ,1595219384
Şırnak,81.18,37.52,42.46,16,0,4.99,TR,1595219384
Flinders,64.0,-34.58,150.86,38,0,11.99,AU,1595219384
Colares,65.62,38.8,-9.45,88,94,2.84,PT,1595219384
Gobabis,39.2,-22.45,18.97,55,0,1.12,NA,1595219384
Joshīmath,72.37,30.57,79.57,52,35,5.95,IN,1595219385
Dingle,88.14,11.0,122.67,65,92,6.62,PH,1595219385
Zhigansk,62.94,66.77,123.37,70,100,4.29,RU,1595219385
Souillac,69.8,-20.52,57.52,60,75,18.34,MU,1595219385
Tessalit,85.5,20.2,1.01,36,76,8.55,ML,1595219385
Nome,54.21,64.5,-165.41,76,75,6.93,US,1595219386
Río Gallegos,34.68,-51.62,-69.22,88,54,7.87,AR,1595219121
Springbok,51.6,-29.66,17.89,38,0,7.87,ZA,1595219386
San Jose,65.26,37.34,-121.89,72,75,10.29,US,1595219262
Leiyang,84.58,26.4,112.86,76,100,3.51,CN,1595219386
Shemonaīkha,77.63,50.63,81.91,56,75,2.98,KZ,1595219387
Dhārūr,79.92,18.82,76.12,77,100,7.52,IN,1595219387
Tuensang,73.8,26.28,94.83,84,100,1.36,IN,1595219387
Marzuq,78.84,14.4,46.47,47,87,5.73,YE,1595219387
Djambala,69.15,-2.54,14.75,69,28,4.85,CG,1595219388
Marabu,86.0,4.41,114.01,79,40,5.82,MY,1595219091
Watsa,62.85,3.04,29.54,100,98,1.07,CD,1595219388
Hailun,65.35,47.45,126.93,92,100,5.1,CN,1595219388
Saskylakh,62.42,71.92,114.08,49,69,11.25,RU,1595219322
Saýat,95.0,38.78,63.88,20,0,13.87,TM,1595219388
Mapiripán,72.5,2.89,-72.13,94,67,3.06,CO,1595219389
Bathsheba,80.6,13.22,-59.52,78,40,14.99,BB,1595219389
Vila do Maio,78.8,15.13,-23.22,78,75,8.05,CV,1595219389
Masoko,58.15,-9.33,33.75,84,69,0.56,TZ,1595219389
Buxton,44.04,53.26,-1.91,90,0,6.38,GB,1595219389
Tezu,74.88,27.92,96.17,87,100,2.91,IN,1595219390
Sijunjung,83.39,-0.69,100.95,71,77,2.17,ID,1595219390
Raymond,76.37,43.9,-70.47,87,96,9.1,US,1595219390
Houma,78.35,29.6,-90.72,94,1,3.36,US,1595219390
Ayan,54.37,56.45,138.17,97,100,6.02,RU,1595219390
Tateyama,82.4,34.98,139.87,78,75,5.82,JP,1595219390
Saint Paul Harbor,59.0,57.79,-152.41,77,90,9.17,US,1595219391
Eirunepé,72.77,-6.66,-69.87,92,0,2.64,BR,1595219391
Poplar Bluff,81.75,36.76,-90.39,74,1,5.82,US,1595219391
Altay,83.07,47.87,88.12,32,1,5.26,CN,1595219391
Wenling,85.8,28.37,121.36,51,96,13.47,CN,1595219392
Moose Factory,51.8,51.26,-80.61,93,90,13.87,CA,1595219392
Kavaratti,78.8,10.57,72.64,94,90,13.87,IN,1595219392
Bilma,85.84,18.69,12.92,22,16,3.85,NE,1595219392
Westport,77.41,41.14,-73.36,78,20,4.7,US,1595219392
Madison,76.84,34.73,-86.57,88,1,1.77,US,1595219393
San Andrés,82.4,12.58,-81.7,83,40,8.05,CO,1595219393
Liberal,69.8,37.04,-100.92,88,90,19.46,US,1595219189
Kuril'sk,61.34,45.23,147.88,85,90,4.54,RU,1595219393
Richards Bay,56.01,-28.78,32.04,81,0,6.8,ZA,1595219393
‘Āhuimanu,80.17,21.44,-157.84,74,40,12.75,US,1595219394
Peniche,62.73,39.36,-9.38,89,42,4.0,PT,1595219394
Verāval,84.99,20.9,70.37,76,68,14.23,IN,1595219394
Narasannapeta,87.08,18.42,84.05,71,100,13.8,IN,1595219394
Yazd,86.0,31.9,54.37,16,20,9.17,IR,1595219394
Whitehorse,54.91,60.72,-135.05,76,90,11.41,CA,1595219395
Irtyshskiy,69.82,58.33,68.13,64,76,11.59,RU,1595219395
Kuna,78.22,43.49,-116.42,38,1,1.83,US,1595219395
Tonekābon,84.2,36.82,50.87,74,20,2.73,IR,1595219395
Verkhoyansk,70.66,67.54,133.38,66,88,5.7,RU,1595219395
Chivilcoy,55.99,-34.9,-60.02,97,100,5.59,AR,1595219396
Kamenz,61.63,51.27,14.09,93,98,2.24,DE,1595219396
Homer,55.36,59.64,-151.55,93,90,3.36,US,1595219168
Saint-Philippe,61.3,-21.36,55.77,88,75,13.87,RE,1595219396
Māngrol,85.08,21.12,70.12,76,72,14.79,IN,1595219396
Ystad,62.2,55.43,13.82,93,75,10.29,SE,1595219396
Bafoulabé,74.8,13.81,-10.83,91,100,7.9,ML,1595219397
Fukuechō,84.2,32.69,128.84,89,75,16.11,JP,1595219324
Chitral,80.22,35.85,71.79,20,0,5.35,PK,1595219397
Juneau,56.16,58.3,-134.42,93,90,11.41,US,1595219397
Upata,79.0,8.01,-62.4,85,20,1.01,VE,1595219397
Vanavara,63.09,60.34,102.28,54,29,3.15,RU,1595219398
Igunga,57.99,-4.28,33.88,74,14,6.76,TZ,1595219398
Ivanteyevka,60.42,55.97,37.92,87,40,4.47,RU,1595219398
Sabha,79.21,27.04,14.43,43,0,14.65,LY,1595219398
Henties Bay,71.01,-22.12,14.28,22,0,18.14,NA,1595219398
Lavrentiya,47.77,65.58,-171.0,74,100,9.91,RU,1595219398
Airai,74.57,-8.93,125.41,39,35,2.64,TL,1595219399
Port-Gentil,74.19,-0.72,8.78,81,100,11.48,GA,1595219399
Kamenka,63.75,51.32,42.77,79,4,3.8,RU,1595219399
West Plains,79.81,36.73,-91.85,74,75,4.7,US,1595219399
Yarke Pole,75.4,45.61,34.32,65,20,6.46,UA,1595219399
Chernoyerkovskaya,77.9,45.43,37.77,50,0,13.42,RU,1595219400
Gorontalo,83.25,0.54,123.06,81,56,6.6,ID,1595219400
Caxito,68.0,-8.58,13.66,88,75,2.24,AO,1595219400
Harrismith,35.33,-28.27,29.13,61,0,2.84,ZA,1595219400
Ruwi,86.0,23.6,58.55,84,62,8.05,OM,1595219400
Kumul,98.51,42.8,93.45,11,34,6.58,CN,1595219401
Laguna,71.87,38.42,-121.42,53,1,9.17,US,1595219401
Tongliao,88.02,43.61,122.27,22,12,10.92,CN,1595219401
Faanui,77.07,-16.48,-151.75,84,67,22.88,PF,1595219402
Urengoy,63.57,65.97,78.37,55,23,16.62,RU,1595219402
Fairview,83.66,40.81,-74.0,65,1,4.7,US,1595219403
Nouadhibou,71.6,20.93,-17.03,83,54,13.87,MR,1595219403
Dimovo,60.01,43.74,22.73,10,0,7.85,BG,1595219403
Santa Cruz de la Sierra,73.4,-17.8,-63.17,83,5,9.17,BO,1595219404
Husavik,44.6,66.04,-17.34,93,90,7.76,IS,1595219404
San Policarpo,86.29,12.18,125.51,68,60,7.4,PH,1595219404
Dawlatabad,98.73,36.41,64.91,9,0,8.55,AF,1595219405
Seminole,78.46,28.71,-81.21,78,5,5.82,US,1595219204
Cascais,65.61,38.7,-9.42,88,92,4.25,PT,1595219405
Kristinestad,63.81,62.27,21.38,80,98,9.35,FI,1595219405
Benguela,66.97,-12.58,13.41,51,0,5.37,AO,1595219405
Grand Gaube,71.01,-20.01,57.66,57,75,5.01,MU,1595219406
Linjiang,70.7,41.81,126.91,84,100,2.13,CN,1595219406
Iskateley,65.32,67.68,53.15,58,0,7.74,RU,1595219406
Leh,51.19,34.17,77.58,59,99,5.19,IN,1595219406
Taoudenni,93.87,22.68,-3.98,24,0,7.58,ML,1595219406
Benoy,70.27,8.98,16.32,94,100,8.5,TD,1595219407
Ormond Beach,82.09,29.29,-81.06,88,40,3.36,US,1595219130
Waterford,70.63,42.7,-83.4,88,75,8.05,US,1595219157
Vilcún,48.02,-38.65,-72.23,87,53,6.93,CL,1595219407
Yenagoa,73.56,4.92,6.26,95,100,4.52,NG,1595219407
Khandyga,90.09,62.67,135.6,37,43,5.91,RU,1595219407
Half Moon Bay,59.95,37.46,-122.43,93,90,4.7,US,1595219170
Araguaína,73.9,-7.19,-48.21,47,23,2.68,BR,1595219143
Lauro Muller,64.36,-28.39,-49.4,73,4,4.0,BR,1595219408
Vuktyl,63.66,63.86,57.31,50,0,7.05,RU,1595219408
Mogadishu,77.59,2.04,45.34,75,53,18.88,SO,1595219408
Beira,62.6,-19.84,34.84,100,75,6.93,MZ,1595219409
Coquimbo,50.0,-29.95,-71.34,93,76,3.36,CL,1595219409
Shelburne,72.45,44.08,-80.2,83,1,6.93,CA,1595219409
Tautira,78.39,-17.73,-149.15,74,40,3.36,PF,1595219409
Olinda,75.2,-8.01,-34.86,94,40,2.24,BR,1595219409
Pandan,87.51,14.05,124.17,62,67,6.91,PH,1595219410
Hearst,53.2,49.68,-83.67,96,83,11.9,CA,1595219410
Ridgecrest,90.82,35.62,-117.67,16,1,9.17,US,1595219410
Hailar,67.78,49.2,119.7,42,2,19.73,CN,1595219410
Mykolayiv,69.4,46.97,32.0,60,0,6.71,UA,1595219411
Kiunga,86.76,-6.12,141.29,66,43,4.36,PG,1595219411
Rawson,45.41,-43.3,-65.1,82,100,11.21,AR,1595219411
Taltal,56.01,-25.4,-70.48,74,100,1.25,CL,1595219411
Vestmannaeyjar,48.96,63.44,-20.27,78,29,1.21,IS,1595219411
Hasaki,82.04,35.73,140.83,78,75,4.7,JP,1595219358
Clarence Town,64.8,-32.58,151.78,23,0,11.41,AU,1595219412
Te Anau,46.13,-45.42,167.72,92,100,3.49,NZ,1595219412
Kologriv,60.1,58.83,44.32,90,99,5.32,RU,1595219412
Banda Aceh,83.88,5.56,95.32,74,87,2.73,ID,1595219412
Berlevåg,51.1,70.86,29.09,90,99,5.32,NO,1595219412
Yangambi,69.67,0.81,24.43,80,93,1.19,CD,1595219412
Three Hills,54.79,51.7,-113.27,82,75,8.05,CA,1595219413
Palmer,78.1,42.16,-72.33,61,90,5.82,US,1595219413
Sibolga,86.5,1.74,98.78,64,4,6.44,ID,1595219413
Mbigou,65.71,-1.9,11.91,97,98,3.38,GA,1595219413
Dagana,82.4,16.52,-15.51,69,0,14.18,MR,1595219413
Thap Than,91.83,15.46,99.89,52,100,3.76,TH,1595219414
Montalvo,71.28,-1.8,-79.33,80,98,2.26,EC,1595219414
Kedrovyy,69.8,56.17,91.82,56,62,6.71,RU,1595219414
Fairmont,79.36,39.49,-80.14,63,99,6.04,US,1595219118
Aleksandrovsk,66.0,59.16,57.56,73,45,4.0,RU,1595219415
Bluefield,68.52,37.27,-81.22,88,1,5.82,US,1595219415
Povorino,66.96,51.19,42.25,72,0,4.41,RU,1595219415
Atambua,82.15,-9.11,124.89,48,49,1.99,ID,1595219415
Thinadhoo,83.41,0.53,72.93,77,100,15.14,MV,1595219148
Ulenje,48.45,-8.93,33.68,76,25,5.68,TZ,1595219415
Qaqortoq,50.0,60.72,-46.03,61,80,4.7,GL,1595219415
Vao,69.26,-22.67,167.48,72,2,16.33,NC,1595219416
Jining,90.7,35.41,116.58,35,0,7.85,CN,1595219416
Broken Hill,55.4,-31.95,141.43,43,0,9.17,AU,1595219416
Amahai,80.85,-3.33,128.92,80,33,8.55,ID,1595219416
Mackenzie,69.8,55.3,-123.17,46,20,2.24,CA,1595219344
Opuwo,47.01,-18.06,13.84,53,0,7.85,NA,1595219416
Sabang,84.49,5.89,95.32,71,100,7.0,ID,1595219417
Erzin,80.01,36.96,36.2,82,0,3.83,TR,1595219417
Puta,87.8,40.3,49.66,52,0,6.93,AZ,1595219417
Powell River,68.67,49.85,-124.54,68,5,14.99,CA,1595219417
Kidal,86.25,18.44,1.41,43,57,6.85,ML,1595219417
Maragogi,75.06,-9.01,-35.22,85,50,14.54,BR,1595219131
Vila Franca do Campo,68.0,37.72,-25.43,68,40,8.05,PT,1595219418
Kapuskasing,62.6,49.42,-82.43,88,90,17.22,CA,1595219418
Makarov,64.15,48.63,142.8,79,87,6.17,RU,1595219418
Vilhena,70.47,-12.74,-60.15,55,0,4.21,BR,1595219210
The Valley,80.2,18.22,-63.06,83,20,12.75,AI,1595219419
Jardim,67.51,-21.48,-56.14,47,20,4.72,BR,1595219419
Andenes,51.8,69.31,16.12,93,100,3.36,NO,1595219419
Mezen',68.22,65.85,44.24,49,0,4.45,RU,1595219419
Sassandra,73.09,4.95,-6.08,95,65,4.81,CI,1595219419
Pori,59.0,61.48,21.78,93,95,3.36,FI,1595219419
Alice Springs,66.2,-23.7,133.88,29,16,14.99,AU,1595219237
Tūkrah,75.79,32.53,20.58,73,0,12.62,LY,1595219420
Hualmay,59.07,-11.1,-77.61,85,71,6.15,PE,1595219420
Mianyang,82.38,31.46,104.75,62,100,7.14,CN,1595219405
Dubai,95.0,25.26,55.3,56,100,12.75,AE,1595219147
Gigmoto,87.12,13.78,124.39,63,77,4.83,PH,1595219420
Wiwilí,71.87,13.63,-85.83,85,65,2.04,NI,1595219420
Monrovia,75.65,6.3,-10.8,89,99,9.22,LR,1595219421
Noumea,74.44,-22.28,166.46,44,15,8.05,NC,1595219337
Byron Bay,70.02,-28.65,153.62,49,0,13.87,AU,1595219421
Port Blair,86.0,11.67,92.75,70,40,6.93,IN,1595219421
Gachsaran,100.4,30.36,50.8,19,0,4.52,IR,1595219421
Menongue,41.02,-14.66,17.69,80,0,3.15,AO,1595219422
Olafsvik,47.61,64.89,-23.71,80,37,6.78,IS,1595219422
Gijang,82.4,35.24,129.21,78,90,9.17,KR,1595219422
Ţahţā,78.03,26.77,31.5,30,21,2.24,EG,1595219422
Khorostkiv,64.99,49.21,25.92,74,100,3.53,UA,1595219422
Bogo,89.55,11.05,124.01,59,98,0.94,PH,1595219423
Dinguiraye,69.04,11.3,-10.72,92,100,2.39,GN,1595219423
Jinchang,85.69,38.5,102.17,15,94,8.9,CN,1595219423
Evensk,66.7,61.95,159.23,57,62,15.73,RU,1595219423
Mumford,73.8,5.26,-0.76,94,100,7.05,GH,1595219423
Malakal,70.3,9.53,31.66,88,69,2.46,SS,1595219424
Gabú,74.46,12.28,-14.22,96,100,5.53,GW,1595219424
Saint-Leu,62.64,-21.15,55.28,88,75,13.87,RE,1595219424
Kutum,72.75,14.2,24.67,70,89,16.44,SD,1595219424
Tasiilaq,42.8,65.61,-37.64,100,63,8.05,GL,1595219424
Lagunas,71.33,-5.23,-75.68,96,0,1.9,PE,1595219425
Bereket,96.49,39.24,55.52,20,0,5.95,TM,1595219425
Tay Ninh,88.86,11.3,106.1,62,100,4.85,VN,1595219425
Mojokerto,92.57,-7.47,112.43,46,4,3.15,ID,1595219425
Sumbawanga,51.21,-7.97,31.62,77,14,3.91,TZ,1595219426
Albania,55.65,41.0,20.0,87,0,3.36,AL,1595219426
Ust-Maya,86.04,60.42,134.53,39,82,12.15,RU,1595219426
Pacific Grove,60.26,36.62,-121.92,77,90,8.05,US,1595219426
Bonavista,58.17,48.65,-53.11,85,3,11.05,CA,1595219427
Vostok,82.09,46.49,135.88,38,100,9.51,RU,1595219427
Pochutla,80.01,15.74,-96.47,84,23,3.76,MX,1595219427
Gushikawa,88.86,26.35,127.87,70,75,13.87,JP,1595219428
Novorozhdestvenskaya,77.09,45.86,39.95,56,24,7.92,RU,1595219428
Trairi,72.5,-3.28,-39.27,91,34,6.98,BR,1595219428
Tyrma,67.12,50.08,132.17,87,100,4.05,RU,1595219428
Iberia,78.8,29.95,-91.75,88,1,3.36,US,1595219429
Lyuban',62.4,52.8,28.0,81,31,3.83,BY,1595219429
Beloyarskiy,63.19,63.71,66.67,52,0,9.22,RU,1595219429
Svarstad,48.7,59.4,9.97,1,42,2.28,NO,1595219430
Quatre Cocos,70.43,-20.21,57.76,60,75,18.34,MU,1595219430
Barra Patuca,79.65,15.8,-84.28,83,8,3.85,HN,1595219430
Būkān,87.33,36.52,46.21,22,0,4.0,IR,1595219430
Rosetta,77.0,31.4,30.42,73,0,8.05,EG,1595219430
Władysławowo,62.6,54.79,18.4,88,50,2.24,PL,1595219431
Vanimo,86.5,-2.67,141.3,61,28,7.72,PG,1595219359
Havelock,82.65,34.88,-76.9,42,1,9.17,US,1595219431
Niamey,77.0,13.51,2.11,100,48,1.12,NE,1595219431
Yacuiba,67.3,-22.04,-63.68,76,0,2.82,BO,1595219431
Ranong,86.0,9.97,98.63,79,20,4.99,TH,1595219432
Teya,55.13,60.38,92.63,90,100,4.68,RU,1595219432
Alenquer,75.2,-1.94,-54.74,94,11,3.2,BR,1595219432
Jumla,74.48,29.27,82.18,50,43,5.91,NP,1595219432
Gouré,81.0,13.98,10.27,67,3,3.0,NE,1595219432
Yanam,86.0,16.73,82.22,74,40,8.05,IN,1595219433
Angoche,72.09,-16.23,39.91,77,4,10.38,MZ,1595219433
Avera,79.47,33.19,-82.53,78,1,4.7,US,1595219433
Laas,56.84,46.62,10.7,87,5,5.82,IT,1595219433
La Ronge,62.6,55.1,-105.28,82,75,8.05,CA,1595219433
Margate,55.35,51.38,1.39,67,0,9.31,GB,1595219409
Kaeo,62.01,-35.1,173.78,3,70,3.0,NZ,1595219434
Stephenville,82.33,32.22,-98.2,58,1,9.17,US,1595219434
Aklera,90.55,24.42,76.57,58,100,12.01,IN,1595219434
Fare,77.7,-16.7,-151.02,82,42,23.82,PF,1595219434
Chernyshevskiy,60.98,63.01,112.47,64,97,4.63,RU,1595219434
Egvekinot,50.65,66.32,-179.17,56,20,3.8,RU,1595219435
Dzilam González,77.29,21.28,-88.93,85,74,4.54,MX,1595219435
Mahon,71.6,39.89,4.27,88,20,3.36,ES,1595219279
Muros,66.99,42.78,-9.06,79,4,5.99,ES,1595219436
Huilong,78.01,31.81,121.66,94,100,5.41,CN,1595219436
Asău,61.83,46.43,26.4,100,100,6.93,RO,1595219436
Ostrovnoy,67.86,68.05,39.51,58,8,12.84,RU,1595219436
Cap-Chat,67.46,49.1,-66.68,84,97,7.78,CA,1595219436
Beyneu,96.44,45.32,55.2,17,0,11.14,KZ,1595219437
Ovalle,55.0,-30.6,-71.2,85,19,0.78,CL,1595219400
Ixtapa,84.2,20.7,-105.2,79,75,3.36,MX,1595219437
San Ignacio,79.0,17.16,-89.07,78,0,1.01,BZ,1595219437
Diffa,84.06,13.32,12.61,48,61,10.13,NE,1595219437
Porto-Novo,75.2,6.5,2.6,94,40,3.36,BJ,1595219437
Rechka Vydrino,58.64,51.48,104.85,55,71,3.47,RU,1595219438
Caucaia,77.88,-3.74,-38.65,78,20,4.7,BR,1595219142
Torres,64.44,-29.34,-49.73,83,6,3.18,BR,1595219438
Laja,53.6,-37.27,-72.7,93,88,9.17,CL,1595219438
San Vicente,63.16,-26.62,-54.13,80,8,5.41,AR,1595219438
Kirakira,81.95,-10.45,161.92,77,22,7.36,SB,1595219438
Timmins,66.2,48.47,-81.33,72,75,6.93,CA,1595219401
Danjiangkou,87.22,32.54,111.51,57,5,8.68,CN,1595219439
Mariehamn,64.4,60.1,19.93,88,96,3.36,AX,1595219439
Ananas,71.49,19.25,-71.96,86,100,3.8,HT,1595219439
Guarapari,67.48,-20.67,-40.5,94,75,3.36,BR,1595219439
Caravelas,70.48,-17.71,-39.25,91,100,5.7,BR,1595219439
Viedma,48.0,-40.81,-63.0,95,79,3.0,AR,1595219440
Porto Empedocle,60.42,37.29,13.53,91,0,4.7,IT,1595219440
Klimovo,64.4,52.38,32.19,72,13,2.57,RU,1595219440
Emerald,78.03,-23.53,148.17,26,88,5.82,AU,1595219440
Buraidah,91.4,26.33,43.98,22,0,8.05,SA,1595219374
Coahuayana Viejo,78.6,18.73,-103.68,89,71,0.92,MX,1595219441
Effingham County,78.89,32.37,-81.33,78,1,3.36,US,1595219319
Janesville,69.44,42.68,-89.02,77,1,4.7,US,1595219280
Kendari,84.09,-3.94,122.5,66,22,7.25,ID,1595219441
Solton,76.96,52.84,86.48,55,58,2.71,RU,1595219441
Kemijärvi,65.89,66.71,27.43,60,51,6.4,FI,1595219441
Llanes,65.57,43.42,-4.75,98,7,1.01,ES,1595219442
Santa Maria,75.2,-29.68,-53.81,60,17,9.17,BR,1595219364
Mt. Pleasant,82.47,32.79,-79.86,83,90,4.7,US,1595219442
Katangli,58.26,51.71,143.23,83,66,12.77,RU,1595219443
Prince Albert,55.4,53.2,-105.77,100,75,6.93,CA,1595219443
Bellevue,71.69,47.61,-122.2,50,1,5.19,US,1595219255
Tabas,98.6,33.6,56.92,11,0,2.24,IR,1595219443
Port Hardy,62.6,50.7,-127.42,72,20,5.82,CA,1595219443
Saldanha,42.8,-33.01,17.94,93,0,2.24,ZA,1595219443
Abbeyleix,40.87,52.9,-7.36,94,0,2.19,IE,1595219443
Harlingen,79.88,26.19,-97.7,83,1,6.93,US,1595219444
Aksu,82.4,41.12,80.26,31,32,10.2,CN,1595219444
Calama,41.0,-22.47,-68.93,7,64,19.46,CL,1595219444
